time_s,lat,lon,alt_m,vel_ms,heading,pitch,roll,yaw,lin_x,lin_y,lin_z,gyr_mag,edr,turb_cat,phase,fuel_flow_kgs,co2_gs,nox_gs,co_gs
0.038217869999998655,40.78258813,-73.87815214,-12.79005573,1.9799999,121.1999969,7.42591047,0.1302696797,-112.8934932,-0.08253240585,0.08090114594,-0.04122519493,0.006047257389222943,,3,climb,1.0201210715443132,3223.5825860800296,14.281608963896934,1.3882192878915556
0.938217869999999,40.78262886,-73.87809573,-12.79016164,1.289999962,123.0,7.401944936,-0.5734412737,-113.5547028,0.08144080639,0.02052211761,0.06498026848,0.009244068160088494,,3,climb,1.9014021767053138,6008.430878388792,44.96531358298412,1.3918042899667464
1.0382178699999987,40.78262886,-73.87809573,-12.79016164,1.289999962,123.0,7.37018703,-0.6760627033,-113.5143146,-0.03667545319,0.01011943817,0.1095695496,0.010018934960663157,,3,climb,2.1143587763979284,6681.373733417454,54.93111340472359,1.2263922365553972
1.938217869999999,40.78257681,-73.87804309,-6.790098772,1.75,118.0999985,7.528496306,-0.6544744319,-113.2346438,0.1080739498,-0.1397018433,-0.08676671982,0.016617330947476618,,3,climb,2.463985289076931,7786.193513483102,76.46492789405832,1.231605578482654
2.0382178699999987,40.78257681,-73.87804309,-6.790098772,1.75,118.0999985,7.507920286,-0.7358006229,-113.2259137,0.08617115021,-0.0566444397,0.05873465538,0.008057865714176965,,3,climb,2.4136601865196115,7627.166189401973,72.95193680580648,1.206450932745899
2.938217869999999,40.78258436,-73.87802004,-9.790125706,1.639999986,117.0,7.622685232,-0.8934556513,-113.806011,0.0242369175,0.1337652206,-0.04517889023,0.026302697312340726,,3,climb,2.0108728307489883,6354.358145166803,49.973568177048435,1.3147538528102172
3.0382178699999987,40.78258436,-73.87802004,-9.790125706,1.639999986,117.0,7.63209741,-1.057305059,-113.9068537,0.04366993904,-0.007038116455,-0.0642285347,0.01689569770562596,,3,climb,1.9568687890325,6183.7053733427,47.47423427884926,1.3548714124409478
3.938217870000001,40.7825593,-73.87800403,-12.79009001,1.25,117.0,7.539882889,-1.490191094,-114.1704557,-0.1849006414,0.14731884,-0.1332683563,0.01388963041981154,,3,climb,1.7476582967141507,5522.600217616717,38.3877556580705,1.47099436779376
4.038217869999999,40.7825593,-73.87800403,-12.79009001,1.25,117.0,7.547473613,-1.47444581,-114.3120661,-0.0350779295,0.06229686737,-0.006711006165,0.006493586534749736,,3,climb,1.8171212190072132,5742.103052062794,41.2954599263696,1.4393931490740177
4.938217870000001,40.78256101,-73.87798986,-15.79010133,1.319999933,107.3000031,7.565009221,-1.206580947,-115.730428,0.05810701847,-0.05354118347,-0.03634738922,0.014063174078855682,,3,climb,0.16314093478610361,515.5253539240874,0.7507190546724748,4.629806919301071
5.038217869999999,40.78256101,-73.87798986,-15.79010133,1.319999933,107.3000031,7.581382534,-1.377497553,-115.8052588,0.07712936401,0.01924800873,-0.1056013107,0.0095028326654014,,3,climb,0.16314092615529333,515.5253266507269,0.7507190149564235,4.629806674365701
5.938217870000001,40.78257945,-73.87797235,-16.79014461,0.9199999571,102.1999969,7.569147093,-1.71568183,-116.6262372,-0.1012877226,0.03967952728,-0.2030076981,0.015271630995000006,,3,climb,0.16314208683434928,515.5289943965437,0.7506996362850177,4.629622507435282
6.038217869999999,40.78257945,-73.87797235,-16.79014461,0.9199999571,102.1999969,7.558908566,-2.006732454,-116.7232461,-0.175023675,0.02127075195,-0.03305482864,0.017503181929056463,,3,climb,0.16315971024655418,515.5846843791112,0.750780730559273,4.630122622073906
6.938217870000001,40.78261143,-73.87796824,-21.79020441,1.399999976,85.5,7.71728563,-2.144590396,-117.5045434,-0.05798566341,0.0253238678,-0.1313490868,0.009344441026747011,,3,climb,0.2676260059004255,845.6981786453446,1.3436011163886579,7.107394007962129
7.038217869999999,40.78261143,-73.87796824,-21.79020441,1.399999976,85.5,7.679044818,-2.287381075,-117.5842203,-0.1016867161,0.03315639496,-0.04206800461,0.005000147620105257,,3,climb,0.24079075701992814,760.8987921829729,1.1278229942983309,6.74506551107439
7.938217870000001,40.7826129,-73.87795441,-22.79021507,1.610000014,75.5,7.725450006,-4.036984388,-118.2563198,-0.3236876726,-0.009606361389,-0.04802179337,0.021897622903924913,,3,climb,2.4442043762149024,7723.685828839091,74.98423572764054,1.220809807692469
8.038217869999999,40.7826129,-73.87795441,-22.79021507,1.610000014,75.5,7.716693089,-4.210700746,-118.3110126,-0.09614956379,-0.2474803925,-0.1244673729,0.009735590121638386,,3,climb,2.4262307833859724,7666.889275499673,73.73305585633652,1.2118325148692686
8.93821787,40.78258909,-73.87793689,-22.79018251,1.569999933,69.09999847,7.793287404,-6.859290036,-118.9239327,-0.2568503618,-0.04261493683,-0.1638965607,0.021125695884112266,,3,climb,2.590384160011616,8185.613945636707,85.54516872910096,1.2938223318433444
9.038217869999999,40.78258909,-73.87793689,-22.79018251,1.569999933,69.09999847,7.80576879,-7.465274802,-119.0045567,-0.1606981754,-0.1153411865,-0.03096723557,0.008724900692271376,,3,climb,2.623196071491016,8289.29958591161,88.00995221796238,1.3102109372393578
9.93821787,40.78250385,-73.87790294,-15.79004919,2.819999933,65.0,7.69044026,-8.157313397,-119.523393,-0.6148866415,-0.083070755,0.04639959335,0.029713429821046487,,3,climb,2.65109501157561,8377.460236578927,90.18037923840932,1.324579862649936
10.038217869999999,40.78250385,-73.87790294,-15.79004919,2.819999933,65.0,7.702678597,-7.945261388,-119.547545,0.0005578994751,-0.2417755127,-0.2865352631,0.01592941708630259,,3,climb,2.6510633793591154,8377.360278774804,90.17795691296965,1.3245640580873699
10.93821787,40.78245402,-73.87785626,-13.78998686,3.299999952,80.5,7.80635973,-8.29622753,-119.737918,0.3045108318,-0.1813936234,0.2137789726,0.04359883393901817,,3,climb,2.6511843816409257,8377.742645985325,90.20094243267698,1.3247494648587825
11.038217869999999,40.78245402,-73.87785626,-13.78998686,3.299999952,80.5,7.853022167,-6.220359809,-119.7687945,-0.288163662,-0.1052789688,0.04858922958,0.04758871566874712,,3,climb,2.6512181684093066,8377.84941217341,90.20353024998658,1.3247663475032494
11.93821787,40.78238227,-73.87780664,-8.78988687,4.630000114,97.80000305,7.8188218,-11.47023582,-120.0198056,0.329990387,-0.1226806641,-0.3092241287,0.015574069469415645,,3,climb,2.6512181469303737,8377.84934429998,90.23816473220943,1.3250807671000553
12.038217869999999,40.78238227,-73.87780664,-8.78988687,4.630000114,97.80000305,7.880527548,-11.39265619,-120.0343142,0.3387809992,0.4636807442,-0.06706237793,0.006078032528426748,,3,climb,2.651178500331515,8377.724061047587,90.2351270078757,1.3250609517009757
12.93821787,40.78230407,-73.87771846,5.210202305,4.96999979,108.0999985,7.895121523,-12.5361019,-120.3852953,-0.190436244,0.6146702766,0.2494149208,0.036304107969507074,,3,climb,2.6511786636504553,8377.72457713544,90.32883769963465,1.3259257599978576
13.038217869999999,40.78230407,-73.87771846,5.210202305,4.96999979,108.0999985,7.88257819,-10.37848652,-120.4261658,-0.2029185295,-0.1058578491,0.2176103592,0.03335234787453813,,3,climb,2.6511966699857195,8377.781477154873,90.33021868298405,1.32593476545045
13.93821787,40.7822648,-73.87765124,5.210233755,5.75,113.5,8.055566723,-12.9871224,-120.4354244,1.060583711,-1.32585907,-0.737405777,0.06120247855721837,,3,climb,2.651196647799223,8377.781407045544,90.33118353593066,1.3259399269534793
14.038217869999999,40.7822648,-73.87765124,5.210233755,5.75,113.5,8.118079045,-13.69959727,-120.5771714,0.1876010895,-0.1994638443,0.8210124969,0.046082889330085475,,3,climb,2.651200229101529,8377.792723960833,90.33145820521023,1.3259417180660782
14.93821787,40.78221195,-73.87758041,7.210287489,6.619999886,115.5,7.951507445,-14.30791822,-120.4114295,0.2388302088,-0.04615879059,0.2775158882,0.02494096359242885,,3,climb,2.651113825897771,8377.519689836956,90.339377032127,1.3260284736742143
15.038217869999999,40.78221195,-73.87758041,7.210287489,6.619999886,115.5,8.003036221,-17.90741475,-120.3877773,0.1010166407,-0.2817001343,-0.3362169266,0.02519402528882379,,3,climb,2.6511138431428027,8377.519744331257,90.33937835489247,1.3260284822997976
15.93821787,40.78217046,-73.87750514,7.210318252,7.629999638,117.5999985,7.8443414,-8.71637646,-120.4124912,0.1443756819,-0.4911079407,0.3851304054,0.048720094861518605,,3,climb,2.426679166152195,7668.306165040936,73.935637796647,1.2137793723017205
16.038217869999997,40.78217046,-73.87750514,7.210318252,7.629999638,117.5999985,7.871726711,-7.052165317,-120.3689289,-0.1517416239,0.03157234192,0.8007497787,0.029123605792268942,,3,climb,2.475409722517556,7822.294723155477,77.35999840762197,1.2381534819665132
16.938217870000003,40.7821078,-73.87737656,5.210356045,9.279999733,116.6999969,7.968616526,-11.60912058,-120.1723085,0.3282464743,0.4630146027,-0.1570448875,0.03549857697403909,,3,climb,2.278413031293643,7199.785178887912,63.97918450662974,1.1395282884816422
17.038217869999997,40.7821078,-73.87737656,5.210356045,9.279999733,116.6999969,7.988077838,-16.67091088,-120.2871496,0.4446043372,0.4478211403,0.1340785027,0.03247368006803067,,3,climb,2.2245810180612615,7029.676017073586,60.55133933804533,1.1138866833841756
17.938217870000003,40.78205009,-73.87726064,4.210392312,10.5199995,117.1999969,8.098208144,-8.285622369,-120.3664346,-0.3992062807,-0.5174512863,-0.1252241135,0.05693185496792918,,3,climb,2.2244147040869624,7029.150464914801,60.540266931364556,1.1140399385892847
18.038217869999997,40.78205009,-73.87726064,4.210392312,10.5199995,117.1999969,8.029252837,-16.1835352,-120.2669334,0.09452223778,0.1576776505,0.1281695366,0.03869724051110581,,3,climb,2.2548812174700408,7125.424647205329,62.462630438818465,1.127719536292544
18.938217870000003,40.78194742,-73.87711136,2.210489937,11.94999981,119.0,8.502048584,-61.93310686,-122.5164863,-0.02485942841,0.520596981,0.2099108696,0.031016077929318705,,3,climb,2.526713020398079,7984.413144457931,81.02651456052793,1.2635704976728621
19.038217869999997,40.78194742,-73.87711136,2.210489937,11.94999981,119.0,8.545448179,-59.00160739,-123.0175092,0.3320928812,-0.2606658936,-0.7487444878,0.06903047375394541,,3,climb,2.5543586772124587,8071.773419991369,83.04826551585417,1.277395667392348
19.938217869999995,40.78186498,-73.87696643,4.210553753,13.86999989,121.5999985,8.739292829,-32.63781306,-126.1490628,0.04920971394,-0.3907094002,-0.2543025017,0.03910491793626177,,3,climb,2.6458896746507317,8361.011371896311,89.93633253151924,1.3233225664033554
20.038217869999997,40.78186498,-73.87696643,4.210553753,13.86999989,121.5999985,8.786476773,-27.15274236,-126.4496649,0.06100857258,0.9703836441,0.3729462624,0.007964708287943694,,3,climb,2.644482879876574,8356.565900409973,89.82869823438938,1.3226189681812612
20.938217869999995,40.78177462,-73.87681724,7.210629308,15.44999981,121.5,8.67041325,-47.27801494,-127.8698921,0.2575536966,0.1188588142,-0.3237924576,0.048231282286306715,,3,climb,2.6506556353145716,8376.071807594046,90.3267567463454,1.325919825337289
21.038217869999997,40.78177462,-73.87681724,7.210629308,15.44999981,121.5,8.649577987,-46.82206493,-127.7660495,0.02943062782,-0.3525943756,-0.5270113945,0.0212489808408493,,3,climb,2.6505124064439936,8375.61920436302,90.31577055966113,1.3258481789127103
21.938217869999995,40.78169244,-73.87665027,10.21067987,16.78999901,118.0,8.072472906,-37.03096129,-127.8472708,0.09318637848,-0.8653373718,-0.8789291382,0.04710004733388564,,3,climb,2.650867481486533,8376.741241497444,90.36794253327162,1.3262375278025904
22.038217869999997,40.78169244,-73.87665027,10.21067987,16.78999901,118.0,7.861021468,-48.97686764,-127.7216022,0.3819060326,-0.4734225273,0.2137298584,0.018223862068535417,,3,climb,2.6508116720864643,8376.564883793228,90.36366019452178,1.3262096061802189
22.938217869999995,40.78163896,-73.87646955,12.21067091,17.90999985,117.6999969,7.647471183,114.2549027,-128.0234166,0.4491603374,1.10521698,-0.3815655708,0.05410555790664069,,3,climb,2.649028188189748,8370.929074679605,90.24461716110525,1.325464626832034
23.038217869999997,40.78163896,-73.87646955,12.21067091,17.90999985,117.6999969,7.792295963,101.3294668,-127.8785,-0.2422753572,-0.4921107292,-0.00742816925,0.04395683703974411,,3,climb,2.6501734499025833,8374.548101692164,90.33246506275759,1.3260376686349094
23.938217869999995,40.78155326,-73.87626772,11.21070754,19.81999969,118.1999969,7.69082737,76.10967269,-128.9391248,-0.1877822876,-1.183767319,-0.6875858307,0.027243493944762866,,3,climb,2.6310421395794434,8314.093161071041,88.87219862297127,1.3164481771868928
24.038217869999997,40.78155326,-73.87626772,11.21070754,19.81999969,118.1999969,7.650450652,84.01937248,-128.9871492,-0.1698348522,-0.4233942032,-0.4029040337,0.03170031712901812,,3,climb,2.630329269738209,8311.84049237274,88.81795084638071,1.3160914910704116
24.938217869999995,40.7814497,-73.87604074,11.21076162,21.70999908,118.3000031,7.748457853,132.3675776,-132.1484258,0.062038064,-0.2406225204,-0.1760721207,0.06152780929050765,,3,climb,2.550374456375643,8059.1832821470325,82.84575889291864,1.2761326338031906
25.038217869999997,40.7814497,-73.87604074,11.21076162,21.70999908,118.3000031,7.737346382,115.9008067,-132.3629942,-0.5899641514,-0.4708724022,-0.2743501663,0.048876854938963876,,3,climb,2.576358584294803,8141.293126371578,84.76697354222388,1.2891343298936069
25.938217869999995,40.78131865,-73.87577302,10.2108414,24.26000023,119.3000031,7.838577355,81.60918673,-132.5703257,0.5998360515,-0.5390429497,-0.4546823502,0.0716302976193837,,3,climb,2.3793695675735234,7518.8078335323335,70.74970832206213,1.1905765288520818
26.038217869999997,40.78131865,-73.87577302,10.2108414,24.26000023,119.3000031,7.97564984,93.47182152,-132.7896492,-0.4239912033,-0.275633812,0.09797000885,0.04697311560209764,,3,climb,2.4554470568293825,7759.2126995808485,76.01771954243524,1.2286437859593464
26.938217869999995,40.78116559,-73.87548091,10.21094652,27.62999916,119.8000031,7.960039823,18.95130404,-133.0744677,0.5539572239,0.9004292488,3.396105289,0.10867565369377796,,3,climb,2.6029848582354984,8225.432152024176,86.78441323382606,1.3025742257506143
27.038217869999997,40.78116559,-73.87548091,10.21094652,27.62999916,119.8000031,8.172859175,15.59735206,-133.8394656,-0.2212976217,-0.5284314156,-0.0161614418,0.08254821337852807,,3,climb,2.6024559629028863,8223.760842773121,86.74462776499678,1.3023095582761952
27.938217869999995,40.7810076,-73.87513566,9.211029661,30.97999954,120.6999969,7.961867778,49.30589827,-132.527282,0.5428693891,0.6465063095,0.5688314438,0.07628237145450602,,3,climb,2.6024231066872834,8223.657017131816,86.75766815832405,1.302351814767728
28.038217869999997,40.7810076,-73.87513566,9.211029661,30.97999954,120.6999969,8.009717273,49.34251005,-132.4065095,0.3497673273,1.078227043,0.3739514351,0.06016014851744424,,3,climb,2.5914724113460905,8189.052819853646,85.93582798246328,1.2968716690089834
28.938217869999995,40.78078589,-73.87478823,11.21122592,33.91999817,122.1999969,7.543752718,75.12392774,-132.3202146,0.132060647,-1.445027828,0.3595232964,0.08662232843853519,,3,climb,2.6316724876730886,8316.08506104696,89.0066026009862,1.3172290771055655
29.038217869999997,40.78078589,-73.87478823,11.21122592,33.91999817,122.1999969,7.708198627,71.19312396,-132.0923606,0.1602376699,0.5662717819,-0.5609726906,0.04496814697151522,,3,climb,2.591212689371951,8188.232098415366,85.95018001397128,1.296977764289962
29.938217869999995,40.78059315,-73.87444105,11.21137034,34.84999847,122.1999969,8.137646955,98.97687702,-132.4313583,-0.6903394461,1.595935345,0.2906880379,0.04070856672689443,,3,climb,2.6402004346276633,8343.033373423415,89.66489308917171,1.3215369957221048
30.038217869999997,40.78059315,-73.87444105,11.21137034,34.84999847,122.1999969,8.23367601,98.92418348,-132.1723462,0.1866220236,-0.2381653786,-0.6166682243,0.06182125159738104,,3,climb,2.644966114268027,8358.092921086965,90.02970795322618,1.3239224289914502
30.938217869999995,40.78039186,-73.87405867,12.21150967,36.52999878,122.5999985,8.310195497,88.38585143,-132.1105148,-0.2609302998,-1.188873291,0.7049641609,0.08397120098179725,,3,climb,2.650702984884253,8376.22143223424,90.4903671329404,1.3269299343835308
31.038217869999997,40.78039186,-73.87405867,12.21150967,36.52999878,122.5999985,8.254660564,88.31341575,-131.6885156,0.3142848015,0.05414628983,0.6179580688,0.09999361941965773,,3,climb,2.6510031859297265,8377.170067537936,90.51343226550662,1.3270802136701365
31.938217869999995,40.78016329,-73.87364393,15.2116792,40.23999786,124.1999969,9.457529757,96.4084997,-131.5271042,0.7202160358,0.3444914818,-0.334168911,0.21439369107518014,,3,climb,2.650942841669079,8376.979379674289,90.56172525916128,1.3274115801186355
32.03821787,40.78016329,-73.87364393,15.2116792,40.23999786,124.1999969,9.442906732,94.30371828,-131.6013983,-0.9062874317,-1.175351143,0.0120639801,0.06377035290691296,,3,climb,2.6505085725860793,8375.60708937201,90.52834370096956,1.32719412774637
32.938217869999995,40.77991501,-73.87318402,17.21185788,42.47000122,123.6999969,7.402861904,80.84423509,-131.5141384,-0.1671477556,-2.236589909,-0.7505393028,0.028086518489418087,,3,climb,2.650553466089707,8375.748952843474,90.56644630744407,1.3274543354892412
33.03821787,40.77991501,-73.87318402,17.21185788,42.47000122,123.6999969,7.203236763,82.05278957,-131.5048062,0.4432041049,-0.3069968224,0.4958953857,0.08295630848909602,,3,climb,2.650878820087926,8376.777071477847,90.5914642072983,1.3276172797878678
33.938217869999995,40.77966339,-73.87267012,18.21201124,45.54999924,122.6999969,6.035005123,85.46893914,-131.4614081,-1.021530271,-0.814622879,-0.1801137924,0.05412624545029816,,3,climb,2.650864029791912,8376.730334142441,90.62838715416737,1.327839578801739
34.03821787,40.77966339,-73.87267012,18.21201124,45.54999924,122.6999969,5.835063462,89.68357072,-131.5945744,0.08111292124,-0.345290184,-0.05780124664,0.01080730936022025,,3,climb,2.6508396638453933,8376.653337751442,90.62651274957659,1.3278273736988748
34.938217869999995,40.77938561,-73.87214106,19.21220276,48.54499817,122.0,8.114468884,80.26456509,-130.7712394,-0.8445857763,-0.6570887566,-0.9663996696,0.013835794033266192,,3,climb,2.641279973385717,8346.444715898866,89.93162238089437,1.3232743863811574
35.03821787,40.77938561,-73.87214106,19.21220276,48.54499817,122.0,8.815119584,78.64279559,-130.8342117,0.942681849,-1.684914112,-0.47072649,0.02722979297571255,,3,climb,2.639354295880407,8340.359574982085,89.78408316541093,1.3223096269672052
35.938217869999995,40.77909292,-73.87155927,22.21239048,51.33249664,122.0,12.13408636,-11.25526594,-130.8041843,0.7361118793,-0.8761334419,0.4755969048,0.06663472941618573,,3,climb,2.4881238164731876,7862.471260055273,78.61682109563883,1.2468795571447269
36.03821787,40.77909292,-73.87155927,22.21239048,51.33249664,122.0,11.59857609,-24.0803434,-130.550949,0.6653462648,-0.1062555313,-0.6216607094,0.0926845863634601,,3,climb,2.5571696102751966,8080.655968469621,83.64742007546947,1.2814806442082263
36.938217869999995,40.77880533,-73.87098184,22.21257156,55.43000031,122.5999985,6.688600625,66.25099684,-129.96799,0.1289817095,-0.216296196,-0.8573718071,0.05507620119005142,,3,climb,1.8177251753615598,5744.011554142528,41.51518513632671,1.4319674320760682
37.03821787,40.77880533,-73.87098184,22.21257156,55.43000031,122.5999985,6.399806979,68.67681195,-129.9442385,0.4116656184,0.001876831055,0.4958429337,0.01780962926348326,,3,climb,1.488210270070052,4702.744453421364,28.591946071534526,1.525088639923752
37.938217869999995,40.77852286,-73.87039511,19.21273808,58.11999893,121.3000031,5.338500348,77.85577148,-129.9458365,-0.1422466636,1.071478844,-0.104288578,0.12017444770128408,,3,climb,1.2166122988984391,3844.4948645190675,19.738172805223197,1.4841346675618585
38.03821787,40.77852286,-73.87039511,19.21273808,58.11999893,121.3000031,5.304290515,80.99239349,-129.9721204,-1.156534433,0.2611627579,-0.695078373,0.022560702461558085,,3,climb,1.340689157498662,4236.577737695771,23.5822739329219,1.5158176634649143
38.938217869999995,40.77822535,-73.86975087,13.21289825,61.27999878,120.8000031,7.528257523,72.09998148,-129.8096974,0.8500801325,1.166699886,1.259147167,0.03163550669710471,,3,climb,0.8814094615019836,2785.253898346268,11.046786360727223,1.2875045128821834
39.03821787,40.77822535,-73.86975087,13.21289825,61.27999878,120.8000031,7.406103527,64.82910359,-129.9073783,-0.8426775932,-1.229967594,-0.2958183289,0.05891604615390643,,3,climb,1.021534041890757,3228.0475723747923,14.378590753403506,1.3891915300864084
39.938217869999995,40.77787804,-73.86906506,13.21312372,64.90000153,120.6999969,9.120543151,30.47642545,-128.9067484,-0.468387723,-0.2501988411,-0.1117286682,0.10147903967338204,,3,climb,1.1603728569099756,3666.778227835523,18.112406643332093,1.46185278674989
40.03821787,40.77787804,-73.86906506,13.21312372,64.90000153,120.6999969,9.241989791,37.31066411,-129.0600285,-0.9304025173,-0.4987635612,0.004398822784,0.11007276595273782,,3,climb,0.8359538853446021,2641.614277688943,10.062001231189186,1.2484361294675193
40.938217869999995,40.77752303,-73.8683547,14.2133488,67.40000153,121.0,9.761227909,28.22144512,-129.7226875,0.06467342377,-0.494407177,-0.3011956215,0.08881947242240842,,3,climb,1.3344225553844555,4216.775275014879,23.394268271709848,1.513624127278735
41.03821787,40.77752303,-73.8683547,14.2133488,67.40000153,121.0,9.52277349,31.87061647,-130.0308957,0.5378710032,-0.1754751205,0.1087799072,0.07142945288016382,,3,climb,1.5876533651758191,5016.984633955589,32.26285912844168,1.5111672008379653
41.938217869999995,40.77714148,-73.86759245,15.21359143,70.86000061,121.5999985,7.675945101,47.41682844,-131.6733082,-0.4387507439,-0.8736205101,-0.3693652153,0.02986375106113607,,3,climb,2.030349213623099,6415.903515048993,51.1845794689537,1.2834093297866052
42.03821787,40.77714148,-73.86759245,15.21359143,70.86000061,121.5999985,7.729320546,48.47604286,-132.0049398,0.7102370858,-0.255546093,0.05568504333,0.07272632639615625,,3,climb,1.759217320791371,5559.126733700732,39.091965858113774,1.456017389853814
42.938217869999995,40.77677176,-73.86682978,15.21381263,72.94999695,121.8000031,7.11294048,46.26663186,-133.9746787,-0.5294413567,-1.525235653,-0.7566986084,0.06398357862495738,,3,climb,1.7220153403485292,5441.568475501353,37.5684228700748,1.4708571027914237
43.03821787,40.77677176,-73.86682978,15.21381263,72.94999695,121.8000031,7.065933179,46.97113151,-134.2514228,-1.554133534,-2.042293549,-0.9335589409,0.04338863666154255,,3,climb,1.3312655593878813,4206.799167665705,23.308185606438684,1.5124456614432833
43.938217869999995,40.77641088,-73.8660449,13.21400508,73.48999786,122.0,5.049832971,51.17398671,-136.4931715,-1.423463106,-2.767547607,-0.9522805214,0.07143467646498375,,3,climb,0.6634546162060544,2096.516587211132,6.666809642431512,3.210357142975835
44.03821787,40.77641088,-73.8660449,13.21400508,73.48999786,122.0,4.800972028,53.76799967,-136.8128529,-1.055472612,-2.812791348,-1.110265732,0.09049056987012426,,3,climb,0.4035580960063371,1275.2435833800253,2.7295877287427044,7.706973586705783
44.938217869999995,40.77605439,-73.86528424,13.21420372,73.18999481,122.4000015,5.71476925,45.43365206,-139.7858403,-0.961589098,-2.824715614,-1.135322094,0.04237045015713204,,3,climb,0.26570981923321846,839.6430287769704,1.3342394034062646,7.083971910643245
45.03821787,40.77605439,-73.86528424,13.21420372,73.18999481,122.4000015,5.770392781,45.74540928,-140.1094059,-0.7122786641,-3.994371414,-1.127685547,0.0614853380853497,,3,climb,1.2610275451583017,3984.8470427002335,21.099929142105015,1.4964703355202187
45.938217869999995,40.77565349,-73.8644893,10.21446229,76.26999664,124.0999985,6.525828157,47.43745957,-142.1255117,-0.911000371,-3.570824146,-0.7552080154,0.03641187289786199,,3,climb,1.769366623218807,5591.19852937143,39.529238551678446,1.449865646017854
46.03821787,40.77565349,-73.8644893,10.21446229,76.26999664,124.0999985,6.704023057,58.23106326,-142.3141962,-1.540072083,-3.792672157,-0.7743287086,0.0408960490855809,,3,climb,1.2890834201206633,4073.5036075812964,21.971981408113145,1.5032349947167036
46.938217869999995,40.77524407,-73.86370693,10.21474348,77.33000183,125.4000015,6.86450215,49.57983057,-143.7549837,-0.362065196,-4.210372925,-0.9234528542,0.03375824994056563,,3,climb,2.364759537887449,7472.640139724339,70.25953739275438,1.1862455326789951
47.03821787,40.77524407,-73.86370693,10.21474348,77.33000183,125.4000015,6.780986307,54.42577329,-143.9976857,-0.935675025,-3.448315144,-0.4846668243,0.040726895666505586,,3,climb,1.9025491415783495,6012.055287387585,45.304970794587476,1.375677641464186
47.938217869999995,40.77484723,-73.86294468,14.21501379,75.27999878,125.9000015,7.493619785,50.36146087,-144.9110306,-0.3647300005,-4.35059309,-0.008110523224,0.04714755991553744,,3,climb,2.2105516441774125,6985.343195600623,60.15643473288993,1.108934236090197
48.03821787,40.77484723,-73.86294468,14.21501379,75.27999878,125.9000015,7.800572807,45.42298566,-145.0273821,-0.5180345774,-3.357582569,-0.07804632187,0.09595641029779237,,3,climb,2.31052888372548,7301.271272572517,66.61362923638778,1.1590883159809202
48.938217869999995,40.77445538,-73.86221428,23.21529368,73.94999695,125.9000015,8.612671049,56.27701898,-145.9714911,0.106959343,-2.781219006,0.9629411697,0.03600997522413987,,3,climb,2.4980291172592546,7893.772010539245,79.628013521941,1.2535580197046334
49.03821787,40.77445538,-73.86221428,23.21529368,73.94999695,125.9000015,8.483615949,51.14875742,-146.0967315,0.1924636364,-2.736865997,0.8640737534,0.04657822621794462,,3,climb,2.5520594743765117,8064.507939029777,83.58156066724686,1.2806714696655987
49.938217869999995,40.77406621,-73.86148514,26.21556951,73.59999847,125.5,6.858151425,31.32684367,-143.4050922,-0.432947278,-3.047376633,0.3988895416,0.02727087538537078,,3,climb,2.5550395603363807,8073.925010662963,83.8152933541807,1.282315212812642
50.03821787,40.77406621,-73.86148514,26.21556951,73.59999847,125.5,6.79684989,34.18356258,-143.4252158,-0.6498126984,-2.412314415,0.5309638977,0.036452842552513444,,3,climb,2.555029154012563,8073.892126679699,83.81452168038516,1.2823099901195973
50.938217869999995,40.77366815,-73.86075541,32.21586099,73.25,126.0999985,7.646966197,17.31014503,-138.8445324,-0.3880184889,-0.7950801849,0.3735103607,0.026968161183485388,,3,climb,2.55800596738481,8083.2988569359995,84.06689526002488,1.2841320409475994
51.03821787,40.77366815,-73.86075541,32.21586099,73.25,126.0999985,7.916749768,10.12344739,-136.2122989,-0.005025625229,-0.5968942642,0.0677781105,0.011029459577437882,,3,climb,2.5907610184590113,8186.804818330475,86.51720694696208,1.3005752436310782
51.93821787,40.77327311,-73.85999233,35.21612773,73.77999878,125.6999969,8.312722709,4.982245519,-132.6602406,-0.1489655972,0.03001070023,0.02980566025,0.01072064158256466,,3,climb,2.5876360259393536,8176.929841968357,86.30955500954751,1.2992352943639214
52.03821787,40.77327311,-73.85999233,35.21612773,73.77999878,125.6999969,8.384872605,4.86736161,-132.649337,-0.2459679842,-0.1851773262,-0.1038041115,0.005497787380666667,,3,climb,2.5798309192175206,8152.265704727365,85.72314287473104,1.2953164008148947
52.93821787,40.77286868,-73.8592548,40.2164262,74.08000183,125.5999985,8.456467541,4.890876249,-132.8615124,0.0114274025,-0.1137781143,-0.0322394371,0.0090811646472677,,3,climb,2.5778805500187123,8146.102538059131,85.61313379877231,1.2946654948528862
53.03821787,40.77286868,-73.8592548,40.2164262,74.08000183,125.5999985,8.425719967,2.194052636,-132.8728061,-0.1705058813,-0.150329113,-0.03324556351,0.02749572262952253,,3,climb,2.593398878374011,8195.140455661875,86.78046976651636,1.3024591237156573
53.93821787,40.77248169,-73.85851149,44.21669004,74.84999847,125.1999969,8.500018696,4.21655876,-132.755104,0.1262680292,0.03160667419,-0.03659105301,0.022610267277869918,,3,climb,2.589121482611603,8181.623885052666,86.49595462038943,1.3006229272779095
54.03821787,40.77248169,-73.85851149,44.21669004,74.84999847,125.1999969,8.622670496,3.518726012,-132.7317674,-0.1638858318,0.0006022453308,0.1134762764,0.043799506117743546,,3,climb,2.597213598809211,8207.194972237106,87.10688686648724,1.3046879323105007
54.93821787,40.77208724,-73.85772636,50.21694303,75.88999939,124.5,9.384146097,7.596265133,-133.2790047,0.2022826672,0.0977139473,0.1837172508,0.016057740710613323,,3,climb,2.5918663766299517,8190.2977501506475,86.75837128530759,1.3024612267352556
55.03821787,40.77208724,-73.85772636,50.21694303,75.88999939,124.5,9.114750761,7.801051794,-133.2878639,0.1330003738,-0.1192541122,-0.08774375916,0.023768859366943236,,3,climb,2.588095898386983,8178.383038902866,86.4739340485403,1.300566491049035
55.93821787,40.77169895,-73.85690343,55.21716306,76.80999756,123.3000031,8.667045964,12.82100878,-133.2298763,0.1481539011,0.3023848534,0.2764606476,0.016538548755275075,,3,climb,2.582931018398796,8162.0620181401955,86.13197152485563,1.298358724869511
56.03821787,40.77169895,-73.85690343,55.21716306,76.80999756,123.3000031,8.58916271,12.99093837,-133.2665852,0.2805306911,0.5567202568,0.2448358536,0.01792449755725628,,3,climb,2.596708624893936,8205.599254664838,87.17177066027963,1.3052842972031744
56.93821787,40.77131933,-73.85607756,58.21736584,78.16999817,122.5999985,8.230125011,11.86336252,-133.2719946,-0.02174961567,0.3514933586,0.1969332695,0.019953892501920513,,3,climb,2.5583832558887525,8084.491088608458,84.335970258893,1.2863257816020512
57.03821787,40.77131933,-73.85607756,58.21736584,78.16999817,122.5999985,8.169437643,13.66271035,-133.2709318,0.2120895386,0.2961287498,0.1503829956,0.011813571520457427,,3,climb,2.4566940163880693,7763.153091786299,76.92966156682235,1.2351975973551628
57.93821787,40.77094512,-73.85527725,58.21757378,77.72000122,122.0,8.217095479,12.7124396,-133.505211,0.3326765299,0.4739108086,0.4490060806,0.023452770442027024,,3,climb,2.512475973924566,7939.424077601629,80.94348597287036,1.2632027613735317
58.03821787,40.77094512,-73.85527725,58.21757378,77.72000122,122.0,8.277535142,12.42379478,-133.5092638,0.1271662712,0.4382138252,0.3310022354,0.01653854936405164,,3,climb,2.6178993142131097,8272.561832913427,88.81840113560045,1.3162066730319155
58.93821787,40.77052833,-73.85449137,59.21786662,80.12999725,122.4000015,7.993894025,14.95181093,-133.7568221,0.1948052645,0.07026004791,0.3979177475,0.043345613320709166,,3,climb,2.6100508592687666,8247.760715289302,88.26919584973483,1.3125550140682005
59.03821787,40.77052833,-73.85449137,59.21786662,80.12999725,122.4000015,7.871877309,13.44721218,-133.8341264,-0.0190063715,0.9283099174,0.612259388,0.044597346933238795,,3,climb,2.5535687822966557,8069.277352057432,84.01753486216998,1.284151033712239
61.93821787,40.76956911,-73.85138889,83.21779011,86.97999573,116.8000031,7.738644312,-13.82832612,-133.9322752,0.1802400351,-0.7177634239,-0.4724459648,0.02578690745963445,,3,descent,2.5039080892244687,7912.3495619493215,80.625090101505,1.2612618373342146
62.03821787,40.76956911,-73.85138889,83.21779011,86.97999573,116.8000031,7.599881759,-11.49473341,-133.821419,-0.1831996441,-0.2454104424,-0.1800513268,0.03425205929081163,,3,descent,2.4143067149910626,7629.209219371758,74.21872570824927,1.2161280744857952
62.93821787,40.76927,-73.85052849,90.21782842,86.50999451,117.3000031,7.65699479,-14.54450843,-133.5708524,0.2558840513,0.7867999077,0.5089707375,0.04508003251036588,,3,descent,2.4195029468617384,7645.629312083093,74.61307610163293,1.2190972095810646
63.03821787,40.76927,-73.85052849,90.21782842,86.50999451,117.3000031,7.730337992,-15.92156796,-133.5785886,-0.2829486132,0.5763754845,0.5310134888,0.03610828633143055,,3,descent,2.42622244908754,7666.862939116627,75.08576188027864,1.2224829158989154
64.93821787,40.76853998,-73.84885152,105.2181674,84.84999847,117.9000015,7.754597065,-24.89626908,-134.3049098,0.111276865,0.2069935799,0.3724946976,0.02312429634585636,,3,descent,2.4440091939817483,7723.069052982325,76.39844001607166,1.232143602860312
65.03821787,40.76853998,-73.84885152,105.2181674,84.84999847,117.9000015,7.684423731,-25.26149337,-134.3199541,-0.06869149208,0.2856025696,0.07952880859,0.020814285556644756,,3,descent,2.4060379915675383,7603.080053353421,73.72282809147688,1.2130004775959755
65.93821787,40.76812516,-73.8480083,105.2184237,84.01999664,119.5,7.918651418,-29.75272096,-133.8666335,0.05473506451,-0.0189037323,0.2624835968,0.029327893330681205,,3,descent,2.1508263664916405,6796.611318113584,57.48954647709794,1.160437122468423
66.03821787,40.76812516,-73.8480083,105.2184237,84.01999664,119.5,7.962420452,-27.91730396,-133.8456604,0.177672863,0.5008711815,0.3945932388,0.038075088145614513,,3,descent,2.3594490179070546,7455.858896586293,70.49106814908718,1.189434800678606
66.93821787,40.76765334,-73.8471722,107.2187867,84.84999847,122.8000031,7.675937244,-27.32818423,-133.7488152,0.1683961153,0.398223877,0.2914414406,0.04906734795866692,,3,descent,1.9284465372513782,6093.891057714355,46.79280440427,1.352605177125222
67.03821787,40.76765334,-73.8471722,107.2187867,84.84999847,122.8000031,7.647426083,-29.51643876,-133.848334,0.07122027874,0.5440702438,0.302177906,0.049510241246777394,,3,descent,1.8753487699081053,5926.1021129096125,44.39799458679288,1.3879698007826076
69.93821787,40.76634186,-73.84450944,95.21959925,88.65999603,123.0,8.177433681,-39.54112441,-133.7559593,-0.06078767776,0.1354131699,0.1666135788,0.0349476854428495,,3,descent,0.16314148250412905,515.5270847130478,0.7519820925552897,4.670923256680098
70.03821787,40.76634186,-73.84450944,95.21959925,88.65999603,123.0,7.970358855,-39.62121046,-133.7327214,-0.1318643093,0.4837927818,0.6241941452,0.030604288037828456,,3,descent,0.16314093623202602,515.5253584932022,0.7519795745762152,4.670907616298318
70.93821787,40.76592893,-73.84371391,96.21988006,87.45999908,123.0,8.505194507,-41.58957731,-134.03269,0.07520222664,-0.1399645805,0.2106666565,0.025808605441948004,,3,descent,0.16314092343116898,515.525318042494,0.7520393376652876,4.670663996796652
71.03821787,40.76592893,-73.84371391,96.21988006,87.45999908,123.0,8.54221142,-41.88212097,-134.0272277,-0.09916472435,-0.2523531914,-0.003254890442,0.031452145887260294,,3,descent,0.1631409231489621,515.5253171507203,0.7520393363643837,4.670663988717173
71.93821787,40.76542933,-73.84311033,91.22042801,84.02999878,125.8000031,8.54054982,-42.34775718,-133.7906279,-0.02599060535,0.3755750656,0.3674955368,0.049040723824120974,,3,descent,0.16314092314882062,515.5253171502732,0.7520291072553246,4.66829102440805
72.03821787,40.76542933,-73.84311033,91.22042801,84.02999878,125.8000031,8.617860366,-42.39255101,-133.8281379,0.2429682016,0.7868714333,0.4868950844,0.050380645268027886,,3,descent,0.16314092315474207,515.525317168985,0.7520291072826206,4.668291024577493
72.93821787,40.76488375,-73.84258445,83.22110368,81.75,129.6999969,8.951204083,-43.63833929,-133.8242197,0.3554700613,0.4930038452,0.5204191208,0.014938122333707457,,3,descent,0.16314092315282203,515.5253171629176,0.7519127635438211,4.665725019469691
73.03821787,40.76488375,-73.84258445,83.22110368,81.75,129.6999969,8.858912258,-43.60145539,-134.0238682,-0.2008336782,0.6355910301,0.2982411385,0.03045762088182047,,3,descent,0.1631409233510195,515.5253177892216,0.7519127644573087,4.665725025138011
73.93821787,40.7643608,-73.8420165,72.22171431,80.75,132.5,7.424835291,-44.56336899,-134.2828132,0.05113422871,-0.3209819794,-0.2089419365,0.05318738918213534,,3,descent,0.1631409233193793,515.5253176892386,0.7516880426156334,4.662977954442671
74.03821787,40.7643608,-73.8420165,72.22171431,80.75,132.5,7.415279184,-44.46640541,-134.1972341,0.1299915314,0.0295381546,0.01288843155,0.06038303186369411,,3,descent,0.16314092457201113,515.5253216475552,0.7516880483872592,4.6629779902460395
74.93821787,40.76385696,-73.84138291,65.22225257,80.44999695,133.3000031,8.500799393,-46.09913711,-134.5872675,-0.009906888008,0.2667088509,0.2563619614,0.0351605877595231,,3,descent,0.1631409244982363,515.5253214144267,0.7515341919380447,4.661350961391672
75.03821787,40.76385696,-73.84138291,65.22225257,80.44999695,133.3000031,8.598210465,-46.15491233,-134.5817857,0.3384017944,0.2741336823,0.2225599289,0.03957916449104611,,3,descent,0.16314183283656783,515.5281917635543,0.7515383763406775,4.661376914927046
75.93821787,40.76329475,-73.84076474,55.22290476,82.29999542,134.8000031,8.221605734,-47.13838417,-134.5176235,-0.03935265541,-0.3980689049,-0.08482074738,0.028975882368044305,,3,descent,0.16314214887046508,515.5291904306696,0.7512535039858992,4.659868352556498
76.03821787,40.76329475,-73.84076474,55.22290476,82.29999542,134.8000031,8.173659616,-46.72049056,-134.5037721,0.1341593266,-0.4049172401,-0.2183351517,0.033796916546323996,,3,descent,0.1631409378558003,515.525363624329,0.7512479273828166,4.659833762053983
76.93821787,40.76270667,-73.84020852,46.22363937,82.68999481,137.1000061,8.618331281,-47.27277069,-134.2536309,-0.04272758961,-0.345761776,-0.4801220894,0.059445693451638526,,3,descent,0.16314093875484684,515.525366465316,0.7510249040270807,4.658019265712164
77.03821787,40.76270667,-73.84020852,46.22363937,82.68999481,137.1000061,8.67712349,-47.39472766,-134.2950351,-0.05965685844,-0.3486762047,-0.1123919487,0.06910341260762976,,3,descent,0.16314092906820485,515.5253358555274,0.7510248594342922,4.658018989138023
77.93821787,40.76208541,-73.83969563,39.22445882,82.75999451,140.0,10.25576285,-47.12076008,-134.034614,0.1914528608,-0.6583404541,-0.5552420616,0.10459183033151281,,3,descent,0.16314092911477213,515.5253360026799,0.7508570900648343,4.656524874109079
78.03821787,40.76208541,-73.83969563,39.22445882,82.75999451,140.0,10.6090787,-46.9554969,-134.0262826,0.1991235018,-0.8381438255,-0.6049966812,0.096698252208058,,3,descent,0.1631409243833284,515.5253210513177,0.7508570682883365,4.656524739059673
78.93821787,40.76144398,-73.83921837,35.22533519,82.30999756,141.8000031,16.14769317,-46.77724663,-134.3112326,0.9224117994,-0.7387466431,-0.6306786537,0.1104332168742974,,3,descent,0.1631409242926934,515.5253207649112,0.7507749660260913,4.655495593797652
79.03821787,40.76144398,-73.83921837,35.22533519,82.30999756,141.8000031,16.23601735,-46.97630265,-134.2031676,1.108007789,-0.6494355202,-0.5532298088,0.12963015434765526,,3,descent,0.16314092835196464,515.5253335922083,0.7507749847068684,4.655495709635658
79.93821787,40.76081936,-73.83871352,28.22616541,82.36000061,142.3999939,8.737142594,-14.62671756,-133.8962642,-0.02661013603,-0.1870918274,0.1411633492,0.11153770492740529,,3,descent,0.16314092837546265,515.525333666462,0.750606339611328,4.6539955290344
80.03821787,40.76081936,-73.83871352,28.22616541,82.36000061,142.3999939,8.941101968,-11.91229783,-133.9230234,0.3015767336,-0.02522420883,-0.1038012505,0.1028106299849355,,3,descent,0.16314104154903214,515.5256912949416,0.7506068603194029,4.653998757588336
80.93821787,40.76018401,-73.83822477,22.22702428,83.43999481,143.6999969,9.313884925,-1.489106644,-133.4540868,0.1772412062,-0.5928072929,-0.3504142761,0.08207674182070161,,3,descent,0.1631410641973456,515.525762863612,0.7504315628453604,4.653087529014074
81.03821787,40.76018401,-73.83822477,22.22702428,83.43999481,143.6999969,9.640153469,-1.822735056,-133.3857746,0.1596391201,-0.5770068169,-0.4146819115,0.06352411157725124,,3,descent,0.16314092937542038,515.5253368263284,0.7504309426788282,4.653083683641225
81.93821787,40.75956036,-73.83766394,26.22782038,83.48999786,143.5,9.963565716,4.881637761,-133.0947072,0.3541587591,0.352232933,0.2205309868,0.04936305351174784,,3,descent,0.16314092943988598,515.5253370300397,0.7505256199288892,4.6539692132858566
82.03821787,40.75956036,-73.83766394,26.22782038,83.48999786,143.5,10.07617115,4.684656107,-133.1552789,0.4124498367,0.2121925354,-0.2103023529,0.03709717783240158,,3,descent,0.16314141662499448,515.5268765349825,0.750527861211361,4.653983111358547
82.93821787,40.75891055,-73.83706497,15.22864144,84.97999573,143.5,9.659396716,12.70838091,-133.4414502,-0.02766883373,-0.7066068649,-0.7871441841,0.044286677908816095,,3,descent,0.1631415506892339,515.5273001779791,0.7502195105217595,4.652147500126542
83.03821787,40.75891055,-73.83706497,15.22864144,84.97999573,143.5,9.763718942,14.19116323,-133.4358215,0.0529551506,-0.9972915649,-0.6532921791,0.05472616313021402,,3,descent,0.1631409455584188,515.5253879646034,0.7502167277791535,4.65213024420494
83.93821787,40.75826359,-73.8364064,1.229422889,85.36999512,142.6999969,8.534333647,23.98879665,-133.2045179,-0.2906894684,-0.7418365479,-0.5758814812,0.054640862221781855,,3,descent,0.16314094689083702,515.525392175045,0.7498644743032596,4.649241998265494
84.03821787,40.75826359,-73.8364064,1.229422889,85.36999512,142.6999969,8.647753525,24.99459736,-133.2666406,0.08401954174,-0.598482132,-0.5021662712,0.0422072067834184,,3,descent,0.163141060742711,515.5257519469668,0.7498649976144042,4.649245242851996
84.93821787,40.75765197,-73.83583752,-2.76980716,86.33999634,142.0,9.235217214,28.32695805,-133.3346914,0.01117241383,-0.1900305748,-0.2511053085,0.03543545043995838,,3,descent,0.1631410845507917,515.5258271805018,0.7497379908991434,4.6487411893528865
85.03821787,40.75765197,-73.83583752,-2.76980716,86.33999634,142.0,9.248239886,29.66728534,-133.3197062,-0.1555646658,-0.6835632324,-0.4667005539,0.04148040422602316,,3,descent,0.16314096837026645,515.5254600500419,0.7497374569750628,4.6487378787631926
85.93821787,40.75704533,-73.83514476,-11.76911792,86.88999939,138.1999969,9.230318215,32.05559309,-133.244639,0.07223033905,-0.6007432938,-0.6083250046,0.051432532006849,,3,descent,0.16314097266547506,515.5254736229011,0.74949919064038,4.646996870154884
86.03821787,40.75704533,-73.83514476,-11.76911792,86.88999939,138.1999969,9.28670094,32.51768219,-133.2956863,-0.1675611734,-0.8836936951,-0.5304794312,0.052188775966060835,,3,descent,0.16314117735800746,515.5261204513035,0.7495001310349655,4.647002700729153
86.93821787,40.75646283,-73.83445644,-13.76846945,87.97999573,136.6000061,9.16945802,36.65811476,-133.4461596,-0.1757442951,-0.5093727112,-0.1843490601,0.044341410991924284,,3,descent,0.1631412273734354,515.5262785000558,0.7494176133330284,4.646984477567841
87.03821787,40.75646283,-73.83445644,-13.76846945,87.97999573,136.6000061,9.031843045,36.43978177,-133.4136791,0.01939845085,-0.5322141647,-0.183368206,0.05497787296933335,,3,descent,0.16314093491748843,515.5253543392635,0.7494162698857507,4.646976147127598
93.93821783,40.75309867,-73.82893796,-24.76561714,88.86000061,119.0999985,8.239462276,65.48680626,-133.8647017,-0.1241995096,-1.003443241,-0.4419674873,0.06232621977268734,,3,descent,0.16314093675107064,515.5253601333832,0.7491157495674331,4.644934692759834
94.03821783,40.75309867,-73.82893796,-24.76561714,88.86000061,119.0999985,8.372498699,65.84317719,-134.0304676,-0.007642388344,-0.3912296295,-0.106985569,0.06228129788865183,,3,descent,0.1631412541070198,515.5263629781825,0.7491172068125885,4.644943728491071
94.93821783,40.75281917,-73.8279608,-29.76568048,89.93000031,114.4000015,9.091069427,68.54924381,-133.4408609,-0.0105625391,-0.3519883156,-0.01932811737,0.059093123316863984,,3,descent,0.16314131770051285,515.5265639336207,0.7489590561757895,4.644278656867742
95.03821783,40.75281917,-73.8279608,-29.76568048,89.93000031,114.4000015,8.835724865,68.91100323,-133.3938944,-0.119228363,-0.784555912,-0.6105976105,0.0817487439892689,,3,descent,0.1631409236080947,515.5253186015793,0.7489572469524137,4.644267437913328
95.93821783,40.75250875,-73.82703812,-35.7656566,88.76999664,113.4000015,8.753429338,71.58362486,-134.285865,0.09166014194,-1.455625534,-0.696003437,0.07160424729488442,,3,descent,0.16314092352838536,515.5253183496977,0.7488427136390844,4.6425222780673705
96.03821783,40.75250875,-73.82703812,-35.7656566,88.76999664,113.4000015,8.719046011,71.91138227,-134.4696945,-0.2289414406,-1.568836212,-0.8237342834,0.07251822219963516,,3,descent,0.1631409270619476,515.5253295157544,0.7488427298586955,4.642522378622406
96.93821783,40.75230645,-73.82605107,-34.76586444,88.37999725,109.5999985,9.268255059,75.9806691,-135.7472778,0.004695773125,-1.441635132,-0.4016394615,0.06250557494822037,,3,descent,0.1631409331624679,515.5253487933985,0.7488799732798859,4.642589105421883
97.03821783,40.75230645,-73.82605107,-34.76586444,88.37999725,109.5999985,9.37115729,76.47818299,-135.918067,-0.1730810404,-1.561262608,-0.4296674728,0.057046441975408015,,3,descent,0.1631411970848203,515.5261827880322,0.7488811847855479,4.642596616001933
97.93821783,40.75213139,-73.825105,-39.7660975,89.05999756,103.6999969,9.781986641,80.06365273,-136.5879256,-0.2845578194,-1.69113493,-0.6653842926,0.07864993781108022,,3,descent,0.1632129391303826,515.752887652009,0.7490633600947344,4.643818665430722
98.03821783,40.75213139,-73.825105,-39.7660975,89.05999756,103.6999969,9.701992446,80.44517511,-136.8465207,-0.07231795788,-1.744264603,-0.3984684944,0.07371753882376442,,3,descent,0.16352286122382137,516.7322414672756,0.7504857429395981,4.65263672856964
98.93821783,40.75193895,-73.82413253,-40.76631456,90.27999878,101.3000031,9.633989499,84.69449306,-138.1842002,-0.04965627193,-1.859316349,-0.2461433411,0.05595005441507973,,3,descent,0.16946440606745197,535.5075231731482,0.7776884884458731,4.821955714769202
99.03821783,40.75193895,-73.82413253,-40.76631456,90.27999878,101.3000031,9.701737021,85.14706001,-138.3148413,0.001007318497,-1.834815025,-0.07655096054,0.06048183072384188,,3,descent,0.1631454544961444,515.5396362078163,0.7486902108128882,4.642155688629857
99.93821783,40.75176519,-73.82313014,-41.76658254,89.09999847,100.1999969,10.45477271,89.4143873,-139.7776599,0.156244874,-2.493594646,0.05645942688,0.06466232970275042,,3,descent,0.1631451303593502,515.5386119355466,0.7487003492545466,4.641472669646494
100.03821783,40.75176519,-73.82313014,-41.76658254,89.09999847,100.1999969,10.48006264,89.93141262,-139.9755864,0.2537728548,-2.248490334,-0.0009932518005,0.06785280389625821,,3,descent,0.16314176964844207,515.527992089077,0.7486849263888742,4.64137705755071
100.93821783,40.75163623,-73.82217268,-45.76690506,87.33999634,99.0,11.06012495,94.66563374,-141.3622614,0.1201381683,-2.643835068,-0.06356048584,0.061953903693877016,,3,descent,0.29696253805033296,938.4016202390521,1.6053691212366006,7.391707712037632
101.03821783,40.75163623,-73.82217268,-45.76690506,87.33999634,99.0,11.15629691,95.02495847,-141.5081955,0.4128516912,-2.320325851,0.3934149742,0.06766556368753307,,3,descent,0.38557605803088113,1218.4203433775845,2.5155049139897536,7.724673883590211
101.93821783,40.75153909,-73.82126969,-44.76725324,85.87999725,97.30000305,11.79669966,98.85878225,-142.7969444,0.3090727329,-2.46927309,0.3134036064,0.06497607917601537,,3,descent,1.3794275622432355,4358.991096688625,24.833249224327382,1.5157521560884197
102.03821783,40.75153909,-73.82126969,-44.76725324,85.87999725,97.30000305,11.82848476,99.32111655,-142.9478902,0.1497575045,-2.582615376,0.3316969872,0.06080794548684805,,3,descent,1.1279868804010578,3564.4385420673425,17.185689270208886,1.4438387079636064
102.93821783,40.75146587,-73.82045212,-40.76759499,83.47999573,95.40000153,12.30518367,103.5638676,-144.1693548,0.2959967852,-2.530620575,0.4868741035,0.051851630193725455,,3,descent,1.7798599269634547,5624.3573692045165,39.88143653114503,1.4429949215961877
103.03821783,40.75146587,-73.82045212,-40.76759499,83.47999573,95.40000153,12.39691054,103.9678218,-144.2581651,0.2267190218,-2.717978477,0.4026613235,0.08395786787060157,,3,descent,2.4660709512398227,7792.784205917839,77.11512158561675,1.234704010424447
103.93821783,40.75153578,-73.81945895,-34.76829587,85.86000061,91.09999847,13.11126747,107.933582,-145.4199734,0.8132069111,-2.893138409,0.7237362862,0.06177294448249216,,3,descent,2.587367538004712,8176.08142009489,86.05588418094618,1.2960393646331771
104.03821783,40.75153578,-73.81945895,-34.76829587,85.86000061,91.09999847,13.18293691,108.4331318,-145.5059493,0.5445802212,-2.98495388,0.6685023308,0.07141900545270667,,3,descent,2.577742462114245,8145.666180281014,85.33505947253633,1.2912180638096973
104.93821783,40.75169025,-73.8184284,-30.76917055,87.95999908,86.19999695,13.46281661,112.7469778,-146.6265275,0.4590934515,-3.00095892,0.7784633636,0.06569287000421577,,3,descent,2.5680521030928305,8115.044645773344,84.67757507500208,1.286822340012478
105.03821783,40.75169025,-73.8184284,-30.76917055,87.95999908,86.19999695,13.53061873,113.2807771,-146.7284241,0.544065237,-3.08567524,0.8970751762,0.07462313453944072,,3,descent,2.5631181174451507,8099.453251126676,84.31051952046562,1.2843499746936091
105.93821783,40.75189653,-73.81737269,-26.77015299,89.93999481,81.59999847,14.80693551,117.4677836,-148.0012908,0.8906685114,-4.066192627,0.6070575714,0.07470809525242218,,3,descent,2.553280762075236,8068.367208157745,83.64412014292151,1.279868820893777
106.03821783,40.75189653,-73.81737269,-26.77015299,89.93999481,81.59999847,14.9816112,117.7567142,-148.1507154,0.7261220217,-3.743310452,0.9365987778,0.06641596969805098,,3,descent,2.5186764673667392,7959.017636878896,81.1011905933266,1.2625229188980922
106.93821783,40.752185,-73.81632496,-21.7712787,91.25,77.59999847,16.1672094,121.8136263,-149.3614113,1.160302281,-3.67634964,0.8001074791,0.06382591787443971,,3,descent,2.5102997533448574,7932.54722056975,80.54646433799124,1.2587560679700853
107.03821783,40.752185,-73.81632496,-21.7712787,91.25,77.59999847,16.31385717,122.150431,-149.4775278,1.070874691,-3.035068989,1.212328434,0.056629547071742725,,3,descent,2.616599945796405,8268.45582871664,88.45733686734981,1.3120588705921559
107.93821783,40.75246164,-73.81523849,-18.77240561,95.38999939,75.09999847,17.23202205,125.4536028,-150.6319095,1.689504385,-3.868771553,1.146511555,0.057473297473953126,,3,descent,2.6077168724604136,8240.385316974907,87.88887609156639,1.3082582597509345
108.03821783,40.75246164,-73.81523849,-18.77240561,95.38999939,75.09999847,17.3711781,125.8580999,-150.7233423,1.321033835,-3.772975445,1.141346931,0.06035521766222219,,3,descent,2.463292953603034,7784.0057333855875,77.26003577460699,1.2358026236555577
108.93821783,40.75280354,-73.8141947,-12.77362525,96.41999817,72.19999695,15.5124889,126.1045959,-144.7030119,0.6964714527,-2.244270325,0.5193920135,0.08231508444121033,,3,descent,2.456042489888296,7761.094268047016,76.79866691596231,1.2326229518884573
109.03821783,40.75280354,-73.8141947,-12.77362525,96.41999817,72.19999695,13.89536101,121.9595648,-141.4072597,0.8910955191,-1.919314861,0.5275030136,0.04993052808847256,,3,descent,2.4122606456833178,7622.743640359284,73.71829743632951,1.2106499989508575
109.93821783,40.75316509,-73.81313304,-8.77489064,96.93000031,69.90000153,13.93983855,120.4257598,-141.6920903,0.4930015802,-3.045894146,-0.209540844,0.06334763957313158,,3,descent,2.4080891805520723,7609.561810544548,73.45966733038046,1.2088371413933552
110.03821783,40.75316509,-73.81313304,-8.77489064,96.93000031,69.90000153,14.05679175,121.7163989,-141.7846873,0.1702840328,-3.315661907,-0.3098120689,0.053187387642550696,,3,descent,2.4828665357215054,7845.858252879957,78.75030881025877,1.2463746400017952
110.93821783,40.75362434,-73.81209813,-3.776316358,98.36999512,66.59999847,13.69500694,125.6397042,-142.2147732,0.7614990473,-2.560138226,0.5744233131,0.05530945546282287,,3,descent,2.4739823864864507,7817.784341297184,78.17010013026463,1.2423670024448947
111.03821783,40.75362434,-73.81209813,-3.776316358,98.36999512,66.59999847,13.64741767,125.7749037,-142.2862615,0.7832810879,-2.316765785,0.6157202721,0.05594004832748719,,3,descent,2.3735327541766416,7500.363503198188,71.12914489339538,1.1919239155130334
112.93821783,40.75453344,-73.80999754,5.220831108,99.54000092,61.79999924,8.747394291,130.4114697,-140.6987906,-0.3303192854,-1.982141972,0.4521846771,0.07037687350165389,,3,descent,2.363557618654375,7468.842074947825,70.51707361670546,1.1875405822149596
113.03821783,40.75453344,-73.80999754,5.220831108,99.54000092,61.79999924,8.460688961,130.7431784,-140.6778957,-0.0176268816,-2.348671436,0.5847468376,0.06685835584256429,,3,descent,2.0999923806161824,6635.975922747137,54.744082783688384,1.2063490521815057
113.93821783,40.75517428,-73.80918307,12.21920615,97.8299942,54.40000153,7.762337483,127.3895331,-131.8545915,-0.2887820005,-0.9237880707,-0.1599812508,0.0587352590192674,,3,descent,2.1231690855273997,6709.214310266583,55.90117593275143,1.1846886789654245
114.03821783,40.75517428,-73.80918307,12.21920615,97.8299942,54.40000153,7.650361206,125.9787388,-131.1779183,-0.1784920692,-0.8755898476,-0.4462242126,0.06305241775658402,,3,descent,2.3580032980031076,7451.29042168982,70.1442702057627,1.1849498007437667
114.93821783,40.75570003,-73.80826869,16.21773034,97.90999603,53.20000076,8.463601313,127.6234027,-130.2136432,-0.4057507515,0.2796649933,0.03011655807,0.08067353693783529,,3,descent,2.357295040617103,7449.052328350046,70.11854148450232,1.184823320750042
115.03821783,40.75570003,-73.80826869,16.21773034,97.90999603,53.20000076,9.076761154,128.7844666,-130.2066416,0.259123683,0.2385883331,0.5110750198,0.0755944170724585,,3,descent,2.4000549967562317,7584.173789749692,73.0570348580742,1.2063153242349454
116.93821782999999,40.75697509,-73.80656264,23.21444736,100.0599976,48.70000076,8.523582292,137.9700192,-130.0088304,0.2325615883,0.0120434761,0.1505765915,0.040690228191340744,,3,descent,2.3828147459974156,7529.694597351833,71.94301675465857,1.1982786309782556
117.03821783000001,40.75697509,-73.80656264,23.21444736,100.0599976,48.70000076,8.520730582,138.4351632,-130.1725525,-0.437079668,0.1099433899,0.2195806503,0.052356533150106715,,3,descent,2.485303113664187,7853.557839178831,79.17740197976885,1.2498183577258877
117.93821782999999,40.75767523,-73.805777,32.21273214,101.7999954,46.20000076,8.024307877,141.2975877,-130.6825184,-0.1865581274,-0.3082084656,-0.3174295425,0.04733712831856866,,3,descent,2.4757046121287476,7823.226574326843,78.5735597160881,1.2457180414894313
118.03821783000001,40.75767523,-73.805777,32.21273214,101.7999954,46.20000076,8.003931597,141.4951795,-130.6847738,-0.1294981241,-0.3146762848,-0.3179106712,0.052013300141881824,,3,descent,2.2955914252864824,7254.068903905284,66.13062851429126,1.155089197781522
118.93821782999999,40.75837524,-73.80495474,35.21099585,101.6500015,45.20000076,8.295487817,146.1213423,-130.6763502,-0.257009387,-0.5338354111,-0.3100676537,0.04341443094073654,,3,descent,2.2969874601891327,7258.480374197659,66.23515214155303,1.155936809769043
119.03821783000001,40.75837524,-73.80495474,35.21099585,101.6500015,45.20000076,8.242071636,146.7208107,-130.7372948,-0.05762374401,-0.2372069359,-0.2366428375,0.03558257325473547,,3,descent,2.3065150400789736,7288.587526649557,66.86745621612725,1.160731472558267
119.93821782999999,40.7590538,-73.80414588,43.20930588,101.5799942,45.09999847,7.829311196,150.2289906,-131.1832353,-0.2480503321,-0.5835075378,-0.4351673126,0.02252759762286398,,3,descent,2.307195781275692,7290.738668831186,66.95137138959053,1.1614995567693214
120.03821783000001,40.7590538,-73.80414588,43.20930588,101.5799942,45.09999847,7.789419851,150.4681438,-131.2114834,-0.04176461697,-0.4942698479,-0.3439998627,0.0333858962370878,,3,descent,2.33021127300537,7363.46762269697,68.49233182691391,1.173086125910874
120.93821782999999,40.75971794,-73.803331,50.2076383,101.7099991,44.20000076,7.916287479,152.0849798,-131.3787568,-0.1383078098,-0.6901431084,-0.5839629173,0.03098598551348507,,3,climb,2.3291185851343985,7360.0147290247,68.45672855982889,1.172933366805003
121.03821783000001,40.75971794,-73.803331,50.2076383,101.7099991,44.20000076,7.843253427,152.5770172,-131.3994923,-0.1516492367,-0.8358612061,-0.6249394417,0.03692578094953309,,3,climb,2.448907361635084,7738.547262766865,76.75542300990713,1.2332584416308061
121.93821782999999,40.76040886,-73.80249289,54.20590899,103.0899963,44.29999924,7.60766429,154.0377734,-131.4390123,-0.05579471588,-0.2376885414,-0.08071947098,0.02697507904503043,,3,climb,2.4404660872266835,7711.87283563632,76.20587980688406,1.229398948362787
122.03821783000001,40.76040886,-73.80249289,54.20590899,103.0899963,44.29999924,7.899401013,154.3763886,-131.4335749,-0.224211812,-0.04083347321,-0.1140265465,0.031464007507020775,,3,climb,2.368446868954342,7484.29210589572,71.17734632281386,1.1931188493811442
122.93821782999999,40.76107463,-73.80160659,57.20419694,103.6899948,44.5,7.916600033,156.8147741,-131.5035244,-0.3424232006,-0.401640892,-0.2701568604,0.03338030645507148,,3,climb,2.3639261909182556,7470.006763301688,70.89465177363935,1.1910771455052642
123.03821783000001,40.76107463,-73.80160659,57.20419694,103.6899948,44.5,7.857741699,157.3088194,-131.5272128,0.1657040119,-0.5574092865,-0.4209213257,0.01658361340029449,,3,climb,2.31329358616518,7310.00773228197,67.4668530572435,1.165565630564367
123.93821782999999,40.76175793,-73.80077845,61.20248701,103.8299942,44.09999847,7.84670066,159.6707642,-131.452411,-0.328306675,-0.4939885139,-0.2455983162,0.02808651845353156,,3,climb,2.312121486176837,7306.303896318805,67.41103925345341,1.16520825941559
124.03821783000001,40.76175793,-73.80077845,61.20248701,103.8299942,44.09999847,7.784706224,159.7560059,-131.4269374,-0.1645143032,-0.5046334267,-0.4822554588,0.006829681102126261,,3,climb,2.360547554199176,7459.330271269396,70.6868683302791,1.1896128829477008
125.93821782999999,40.76321294,-73.79909654,66.19889289,106.2699966,42.20000076,8.810049607,164.8247624,-131.1127299,-0.06547522545,0.08774137497,-0.193734169,0.023886315793079805,,3,climb,2.34241589793072,7402.034237461075,69.5242064919925,1.181033350089554
126.03821783000001,40.76321294,-73.79909654,66.19889289,106.2699966,42.20000076,8.788764282,164.9243513,-131.0581441,0.05978679657,-0.1401686668,-0.08769416809,0.024813463084931472,,3,climb,2.4569343527586076,7763.9125547172,77.51480419018807,1.2387729318913763
126.93821782999999,40.76400583,-73.79828358,74.19699426,108.0799942,40.5,8.591061613,164.9179501,-130.9039902,-0.1835576296,0.1915845871,0.2798061371,0.016046117368401756,,3,climb,2.4476229035255246,7734.488375140658,76.93300459542041,1.234762768018326
127.03821783000001,40.76400583,-73.79828358,74.19699426,108.0799942,40.5,8.532955325,164.7846711,-130.9564247,0.09853076935,0.2986488342,0.1675872803,0.011230620817297908,,3,climb,2.3417536479652914,7399.94152757032,69.55590601131227,1.1813544530138778
127.93821782999999,40.7647571,-73.79746366,75.19516644,108.7699966,40.79999924,7.959766452,164.9466067,-130.9127731,0.2144473791,0.4134550095,0.2537941933,0.007870448045827321,,3,climb,2.3369780115451517,7384.850516482679,69.25058910651795,1.1790826225146187
128.03821783,40.7647571,-73.79746366,75.19516644,108.7699966,40.79999924,7.995243863,164.8958531,-130.9104723,-0.07463645935,0.1006369591,0.07848739624,0.016695742120682536,,3,climb,2.331397329679879,7367.215561788417,68.87266045269936,1.1762669841232352
128.93821782999999,40.76551553,-73.79663629,76.19332132,109.409996,40.29999924,8.170106595,165.3631648,-130.8305269,0.1680657864,0.4841604233,0.3761672974,0.010018935031328637,,3,climb,2.326955072700147,7353.178029732465,68.59031024266632,1.1741570243769206
129.03821783,40.76551553,-73.79663629,76.19332132,109.409996,40.29999924,8.186356824,165.4730837,-130.8225933,-0.004549980164,0.4915437698,0.2034549713,0.018976191888156337,,3,climb,2.2420276376484023,7084.807334968951,62.97558341897603,1.1313035350258736
129.93821782999999,40.76629438,-73.79579868,79.19143345,109.3600006,40.40000153,8.268687144,166.2071174,-130.9541024,-0.1133321524,0.01878118515,0.1408567429,0.010927489705532575,,3,climb,2.031003058707304,6417.969665515081,51.7165012253514,1.2592281035100867
130.03821783,40.76629438,-73.79579868,79.19143345,109.3600006,40.40000153,8.298973562,166.2109941,-130.9365916,0.1680829525,-0.02602529526,0.2497463226,0.005922558252908628,,3,climb,2.152233217449177,6801.0569671394,57.71089148374074,1.1430449615572087
130.93821782999999,40.76705244,-73.7949532,87.18957835,110.0400009,40.5,8.424289574,167.3152199,-130.8230257,0.2574332952,-0.5141582489,-0.03186941147,0.012063622281504904,,3,climb,2.250071718698037,7110.226631085796,63.560642310070975,1.13601910591846
